{"ttl":60,"data":{"stations":[{"lon":-86.77612,"lat":36.16309,"address":"204 Commerce Ave.","name":"The District: Commerce & 2nd Ave N","station_id":"bcycle_nashville_2162"},{"lon":-86.77986,"lat":36.16335,"address":"425 Church St.","name":"Fifth Third Plaza: Church St between 4th & 5th Ave N","station_id":"bcycle_nashville_2165"},{"lon":-86.77869,"lat":36.16596,"address":"424 3rd Ave. N","name":"Public Square: 3rd Ave N & Union St","station_id":"bcycle_nashville_2166"},{"lon":-86.77426,"lat":36.16252,"address":"106 1st Ave. S","name":"Riverfront Station: Broadway & 1st Ave N","station_id":"bcycle_nashville_2167"},{"lon":-86.76938,"lat":36.16395,"address":"408 S. 1st St. ","name":"Cumberland Park: Victory Way at Base of Pedestrian St Bridge","station_id":"bcycle_nashville_2168"},{"lon":-86.78256,"lat":36.16422,"address":"314 6th Ave. N","name":"TPAC: 6th Ave N & Union St","station_id":"bcycle_nashville_2169"},{"lon":-86.78381,"lat":36.15303,"address":"494 11th Ave. S","name":"The Gulch: 11th Ave S & Pine St","station_id":"bcycle_nashville_2170"},{"lon":-86.79151,"lat":36.15236,"address":"118 16th Ave S","name":"Music Row Roundabout: 16th Ave S","station_id":"bcycle_nashville_2171"},{"lon":-86.81246,"lat":36.14727,"address":"101 27th Ave N","name":"Centennial Park: 27th Ave N","station_id":"bcycle_nashville_2172"},{"lon":-86.78228,"lat":36.1565,"address":"187 9th Ave. S","name":"Frist Center: 9th Ave S & Demonbreun St","station_id":"bcycle_nashville_2173"},{"lon":-86.80048,"lat":36.13763,"address":"2079 Wedgewood Ave.","name":"Hillsboro Village: Wedgewood Ave & 21st Ave S","station_id":"bcycle_nashville_2175"},{"lon":-86.76836,"lat":36.15839,"address":"57 Peabody St.","name":"Trolley Barns: Peabody St","station_id":"bcycle_nashville_2176"},{"lon":-86.75013,"lat":36.17681,"address":"109 S. 11th St.","name":"5 Points East Nashville: S 11th St","station_id":"bcycle_nashville_2177"},{"lon":-86.78847,"lat":36.17089,"address":"891 7th Ave. N","name":"Nashville Farmers' Market: 7th Ave N / Outdoor Food Court","station_id":"bcycle_nashville_2179"},{"lon":-86.78924,"lat":36.1768,"address":"502 Monroe St.","name":"Germantown: NW 5th Ave & Monroe St","station_id":"bcycle_nashville_2180"},{"lon":-86.77513,"lat":36.16046,"address":"135 3rd Ave.","name":"SoBro: 3rd Ave S & Symphony Pl","station_id":"bcycle_nashville_2181"},{"lon":-86.78473,"lat":36.16133,"address":"900 Church St.","name":"Downtown YMCA: Church St & 9th Ave N","station_id":"bcycle_nashville_2315"},{"lon":-86.78918,"lat":36.12658,"address":"2315 12th Ave South","name":"12 South Flats: 12th Ave S & Elmwood","station_id":"bcycle_nashville_2516"},{"lon":-86.79042,"lat":36.12072,"address":"1181 Kirkwood Ave.","name":"Sevier Park: Kirkwood Ave & 12th Ave S","station_id":"bcycle_nashville_2517"},{"lon":-86.80129,"lat":36.15302,"address":"2000 Church St.","name":"Saint Thomas Midtown: Church St. and 20th Ave N","station_id":"bcycle_nashville_2684"},{"lon":-86.84171,"lat":36.14157,"address":"101 46th Avenue North","name":"McCabe Community Center: 103 46th Ave N","station_id":"bcycle_nashville_2724"},{"lon":-86.84804,"lat":36.12639,"address":"2 Richland Creek Greenway","name":"Hill Center Trailhead: Richland Creek Greenway & N Kenner Ave","station_id":"bcycle_nashville_2970"},{"lon":-86.79006,"lat":36.18017,"address":"Magdeburg Greenway","name":"Morgan Park: Magdeburg Greenway & 4th Ave N","station_id":"bcycle_nashville_2971"},{"lon":-86.79562,"lat":36.1313,"address":"2101 Belmont Blvd.","name":"Belmont Boulevard: 2101 Belmont Blvd","station_id":"bcycle_nashville_2973"},{"lon":-86.72529,"lat":36.16742,"address":"1900 Davidson Street","name":"Shelby Bottoms Nature Center: 1900 Davidson St","station_id":"bcycle_nashville_2974"},{"lon":-86.78625,"lat":36.17301,"address":"410 Jackson Street","name":"First Tennessee Park: Junior Gilliam Way & 5th Ave N","station_id":"bcycle_nashville_2975"},{"lon":-86.77723,"lat":36.15883,"address":"170 5th Ave. S","name":"Walk of Fame Park: 5th Ave S  & Demonbreun St.","station_id":"bcycle_nashville_3260"},{"lon":-86.62088,"lat":36.15886,"address":"Bell Rd near Stewarts Ferry Pk","name":"J. Percy Priest Dam Trailhead: Stones River Greenway off Bell Rd","station_id":"bcycle_nashville_3271"},{"lon":-86.68654,"lat":36.18777,"address":"2320 2 Rivers Parkway","name":"Two Rivers Skatepark: Two Rivers Greenway","station_id":"bcycle_nashville_3315"},{"lon":-86.82341,"lat":36.16559,"address":"1037 28th Ave North","name":"Hadley Park Community Center: 1037 28th Ave North","station_id":"bcycle_nashville_3349"},{"lon":-86.83501,"lat":36.15229,"address":"3906 Charlotte Ave","name":"40th Ave. N and Charlotte Ave. ","station_id":"bcycle_nashville_3456"},{"lon":-86.84192,"lat":36.15232,"address":"4510 Charlotte Ave","name":"Charlotte Ave and 46th Ave N ","station_id":"bcycle_nashville_3467"},{"lon":-86.79938,"lat":36.14817,"address":"200 21st Avenue South ","name":"200 21st Ave South","station_id":"bcycle_nashville_3568"},{"lon":-86.81435,"lat":36.14958,"address":"27th North Avenue ","name":"Parthenon ","station_id":"bcycle_nashville_3569"},{"lon":-86.82398,"lat":36.185,"address":"1901 Ed Temple Blvd","name":"Ted Rhodes Golf Course: 1901 Ed Temple Blvd","station_id":"bcycle_nashville_3597"},{"lon":-86.73278,"lat":36.183,"address":"715 Porter Road","name":"715 Porter Road","station_id":"bcycle_nashville_3613"}]},"last_updated":1507603444}
